{
  "_meta": {
    "title": "临港LIN舍宠物店 · 选址POI数据",
    "updated": "2026-06-16",
    "source": "高德地图 AMap.PlaceSearch 实测校准",
    "coordSystem": "WGS84 / GCJ02混用(高德API返回GCJ02)"
  },
  "store": {
    "id": "store",
    "name": "宅咪·临港 LIN 舍",
    "role": "store",
    "lng": 121.809569,
    "lat": 30.890516,
    "address": "浦东新区泥城镇·临港 LIN 舍人才公寓社区（云端路/群峰路片区，紧邻临港万达广场）",
    "source": "用户实测+AMap校准"
  },
  "wanda": {
    "id": "wanda",
    "name": "上海临港万达广场",
    "role": "wanda",
    "lng": 121.814583,
    "lat": 30.891701,
    "address": "浦东新区鸿音路2555号（紧邻五岭路/鸿音路交叉口）",
    "source": "高德POI实测"
  },
  "school": {
    "id": "school",
    "name": "上海交通大学附属浦东临港实验中学",
    "role": "school",
    "lng": 121.809048,
    "lat": 30.891721,
    "address": "浦东新区五岭路1301号（万达北侧约500m，2024年开办）",
    "source": "高德POI实测"
  },
  "school_elem": {
    "id": "school_elem",
    "name": "上海交通大学附属浦东临港实验小学",
    "role": "school",
    "lng": 121.807220,
    "lat": 30.891735,
    "address": "浦东新区五岭路1201号",
    "source": "高德POI实测"
  },
  "estates": [
    { "id": "e1", "name": "新元·露华苑", "role": "estate",
      "lng": 121.812233, "lat": 30.891724,
      "address": "浦东新区五岭路1899弄（万达西侧·五岭路上）",
      "population": 4200, "buildYear": 2020, "source": "高德POI实测" },
    { "id": "e2", "name": "新元·泽辉苑", "role": "estate",
      "lng": 121.811988, "lat": 30.890131,
      "address": "浦东新区云端路1059弄（万达西南·云端路）",
      "population": 4500, "buildYear": 2019, "source": "高德POI实测" },
    { "id": "e3", "name": "海云苑", "role": "estate",
      "lng": 121.817301, "lat": 30.891070,
      "address": "浦东新区云端路1389弄（万达东北·云端路上）",
      "population": 5800, "buildYear": 2018, "source": "高德POI实测" },
    { "id": "e4", "name": "新元·著雨苑", "role": "estate",
      "lng": 121.812001, "lat": 30.888662,
      "address": "浦东新区群峰路275号（万达南·群峰路）",
      "population": 3900, "buildYear": 2020, "source": "高德POI实测" },
    { "id": "e5", "name": "新元·林彩苑", "role": "estate",
      "lng": 121.814652, "lat": 30.888702,
      "address": "浦东新区云端路1210弄（万达南·云端路上）",
      "population": 4100, "buildYear": 2019, "source": "高德POI实测" },
    { "id": "e6", "name": "凌波苑", "role": "estate",
      "lng": 121.817151, "lat": 30.887429,
      "address": "浦东新区云端路1388弄（万达东南·云端路上）",
      "population": 4400, "buildYear": 2018, "source": "高德POI实测" },
    { "id": "e7", "name": "新元·盛璟苑", "role": "estate",
      "lng": 121.808497, "lat": 30.886894,
      "address": "浦东新区群峰路128弄（LIN 舍南·群峰路）",
      "population": 3700, "buildYear": 2020, "source": "高德POI实测" },
    { "id": "e8", "name": "新元·芳菲苑", "role": "estate",
      "lng": 121.813352, "lat": 30.886904,
      "address": "浦东新区正茂路1397弄（万达南·正茂路）",
      "population": 3800, "buildYear": 2019, "source": "高德POI实测" }
  ],
  "competitors": [
    { "id": "c1", "name": "艾米尔宠物店（云松景庭店）", "role": "competitor",
      "lng": 121.8170, "lat": 30.8955,
      "address": "浦东新区泥城镇彩云路555号",
      "category": "宠物综合",
      "distance_to_store_m": 900,
      "source": "用户高德搜索截图（坐标为视觉估算，待浏览器精修）",
      "estimated": true },
    { "id": "c2", "name": "牛妞宠物生活馆", "role": "competitor",
      "lng": 121.8212, "lat": 30.8940,
      "address": "浦东新区泥城镇池月路301号与霞光路交叉口向西30米",
      "category": "宠物综合",
      "distance_to_store_m": 1176,
      "source": "用户高德搜索截图（坐标为视觉估算，待浏览器精修）",
      "estimated": true },
    { "id": "c3", "name": "萌萌哒宠物店（泥城店）", "role": "competitor",
      "lng": 121.8190, "lat": 30.8975,
      "address": "浦东新区泥城镇彭平东路106号",
      "category": "宠物综合",
      "distance_to_store_m": 1189,
      "source": "用户高德搜索截图（坐标为视觉估算，待浏览器精修）",
      "estimated": true },
    { "id": "c4", "name": "萌宠Family（泥城万达店）", "role": "competitor",
      "lng": 121.8125, "lat": 30.8925,
      "address": "浦东新区泥城镇蓄芳路4号6号",
      "category": "宠物综合",
      "distance_to_store_m": 356,
      "source": "用户高德搜索截图（坐标为视觉估算，待浏览器精修）",
      "estimated": true,
      "note": "最近竞品！356m 步行 5 分钟可达" },
    { "id": "c5", "name": "萌喜宠物", "role": "competitor",
      "lng": 121.8060, "lat": 30.8930,
      "address": "浦东新区泥城镇云夏路259号",
      "category": "宠物综合",
      "distance_to_store_m": 438,
      "source": "用户高德搜索截图（坐标为视觉估算，待浏览器精修）",
      "estimated": true },
    { "id": "c6", "name": "喵汪家宠物店", "role": "competitor",
      "lng": 121.8155, "lat": 30.8865,
      "address": "浦东新区泥城镇南镜湖路61号",
      "category": "宠物综合",
      "distance_to_store_m": 721,
      "source": "用户高德搜索截图（坐标为视觉估算，待浏览器精修）",
      "estimated": true }
  ],
  "walkingRoute": {
    "store_to_wanda": {
      "distance_m": 932,
      "duration_min": 12,
      "via": "五岭路→鸿音路",
      "polyline": [
        [121.809609, 30.890360], [121.809557, 30.890343], [121.809523, 30.890299],
        [121.809484, 30.890152], [121.809479, 30.890148], [121.809253, 30.890117],
        [121.809249, 30.890113], [121.809245, 30.889918], [121.809245, 30.889918],
        [121.809240, 30.889727], [121.809240, 30.889727], [121.809236, 30.889453],
        [121.809232, 30.889449], [121.810985, 30.889427], [121.810985, 30.889427],
        [121.813529, 30.889427], [121.813529, 30.889427], [121.813555, 30.890725],
        [121.813559, 30.890725], [121.814141, 30.890877], [121.814141, 30.890877],
        [121.815109, 30.890898], [121.815495, 30.891141], [121.815495, 30.891141],
        [121.815486, 30.891163], [121.815473, 30.891428], [121.815473, 30.891471],
        [121.815473, 30.891471], [121.815473, 30.891684]
      ]
    }
  }
}